Número_punt_crític,Nom_Districte,Nom_Barri,Nom_Carrer,Número,Latitud,Longitud,Motiu,Nombre_visites_març_2018,Estat_març_2018,Nombre_visites_abril_2018,Estat_abril_2018,Nombre_visites_maig_2018,Estat_maig_2018,Nombre_visites_juny_2018,Estat_juny_2018,Nombre_visites_Juliol_2018,Estat_Juliol_2018,Nombre_visites_Agost_2018,Estat_Agost_2018,Nombre_visites_Setembre_2018,Estat_Setembre_2018,Nombre_visites_Octubre_2018,Estat_Octubre_2018,Nombre_visites_novembre_2018,Estat_novembre_2018,Nombre_visites_desembre_2018,Estat_desembre_2018
1,Ciutat Vella,el Raval,Carrer dels Salvador,1,41.378941,2.164394,Mala praxi comercial,7,29.57,5,10.6,6,26,6,18,6,24.83,5,13.4,2,18,2,16.5,3,11.33,3,2.67
2,Ciutat Vella,el Raval,Carrer Aurora,25,41.377945,2.167225,Mal ús de la recollida pneumàtica,7,29.57,4,14.25,6,41.83,6,21.75,6,12.17,5,26.2,7,14.57,10,20.2,11,18.18,6,23
3,Ciutat Vella,el Raval,Carrer Robadors,26,41.379672,2.170754,Mala praxi comercial,7,5,4,3.5,6,1.5,5,8.4,Eliminat,Eliminat,Eliminat,Eliminat,Eliminat,Eliminat,Eliminat,Eliminat,Eliminat,Eliminat,Eliminat,Eliminat
4,Ciutat Vella,el Raval,Carrer Vistalegre,21,41.378282,2.166277,Mal ús de la recollida pneumàtica,7,16.43,5,14,6,26.67,6,23.5,7,17.71,5,7,8,12.25,10,13.4,11,28.09,7,17.43
5,Ciutat Vella,el Barri Gòtic,Carrer Anselm Clavé,21,41.377609,2.178051,Mal ús de contenidors i/o papereres,7,25.71,4,12,6,20.67,7,38.43,Eliminat,Eliminat,Eliminat,Eliminat,Eliminat,Eliminat,Eliminat,Eliminat,Eliminat,Eliminat,Eliminat,Eliminat
6,Ciutat Vella,el Barri Gòtic,Plaça Joaquim Xirau,,41.378441,2.17632,Mala praxi comercial,7,14.86,5,7.8,6,14.17,6,11.17,Eliminat,Eliminat,Eliminat,Eliminat,Eliminat,Eliminat,Eliminat,Eliminat,Eliminat,Eliminat,Eliminat,Eliminat
7,Ciutat Vella,el Barri Gòtic,Plaça Regomir,,41.381721,2.17867,Mala praxi comercial,7,2.71,2,4,1,4,Eliminat,Eliminat,Eliminat,Eliminat,Eliminat,Eliminat,Eliminat,Eliminat,Eliminat,Eliminat,Eliminat,Eliminat,Eliminat,Eliminat
8,Ciutat Vella,el Barri Gòtic,Carrer Nou de Sant Francesc ,,41.3785993,2.1779434,Mal ús de contenidors i/o papereres,7,5.86,2,0,Eliminat,Eliminat,Eliminat,Eliminat,Eliminat,Eliminat,Eliminat,Eliminat,Eliminat,Eliminat,Eliminat,Eliminat,Eliminat,Eliminat,Eliminat,Eliminat
9,Ciutat Vella,la Barceloneta,Carrer Ginebra,19,41.381765,2.188789,Mal ús de contenidors i/o papereres,7,15.43,2,6,Eliminat,Eliminat,Eliminat,Eliminat,Eliminat,Eliminat,Eliminat,Eliminat,Eliminat,Eliminat,Eliminat,Eliminat,Eliminat,Eliminat,Eliminat,Eliminat
10,Ciutat Vella,la Barceloneta,Carrer de la Drassana,8,41.375621,2.189874,Mala praxi comercial,6,5.17,4,0.63,5,0.4,6,6.17,5,2.2,4,2.75,2,1,2,0,3,5.33,3,1.67
11,Ciutat Vella,la Barceloneta,Carrer del Mar,52,41.379326,2.187992,Mala praxi comercial,7,1.57,4,0,6,1,7,5.64,Eliminat,Eliminat,Eliminat,Eliminat,Eliminat,Eliminat,Eliminat,Eliminat,Eliminat,Eliminat,Eliminat,Eliminat
12,Ciutat Vella,la Barceloneta,Carrer de La Maquinista ,40,41.380884,2.189762,Mal ús de contenidors i/o papereres,7,2.86,3,1.67,6,4.42,7,2.86,Eliminat,Eliminat,Eliminat,Eliminat,Eliminat,Eliminat,Eliminat,Eliminat,Eliminat,Eliminat,Eliminat,Eliminat
13,Ciutat Vella,"Sant Pere, Santa Caterina i la Ribera",Carrer Princesa,31,41.385736,2.180878,Mala praxi comercial,8,12,1,22,Eliminat,Eliminat,Eliminat,Eliminat,Eliminat,Eliminat,Eliminat,Eliminat,Eliminat,Eliminat,Eliminat,Eliminat,Eliminat,Eliminat,Eliminat,Eliminat
14,Ciutat Vella,"Sant Pere, Santa Caterina i la Ribera",Avinguda de Francesc  Cambó ,12,41.3861473,2.177662,Mala praxi comercial,8,17.38,5,22.3,6,5.5,6,3.5,6,2.33,5,2.8,7,35.14,10,6.2,11,6.91,7,6.86
15,Ciutat Vella,"Sant Pere, Santa Caterina i la Ribera",Plaça de la Llana,,41.385036,2.179288,Mal ús de contenidors i/o papereres,8,6.38,2,16,Eliminat,Eliminat,Eliminat,Eliminat,Eliminat,Eliminat,Eliminat,Eliminat,Eliminat,Eliminat,Eliminat,Eliminat,Eliminat,Eliminat,Eliminat,Eliminat
16,Ciutat Vella,"Sant Pere, Santa Caterina i la Ribera",Carrer dels Abaixadors ,11,41.383187,2.181211,Mal ús de contenidors i/o papereres,8,31.5,5,13.2,6,21.17,7,11,6,7.33,5,11.6,2,3,2,9.5,3,11.33,3,6.67
17,Eixample,Sant Antoni,Avinguda Mistral,68,41.375715,2.152794,Mala praxi comercial,6,2.17,4,0,6,2.83,8,3.75,6,4.17,5,4.2,2,5,2,4,2,1.5,3,2.33
18,Eixample,Sant Antoni,Ronda de Sant Antoni,15,41.379959,2.163077,Mala praxi comercial,6,8.5,3,1.33,6,15.67,9,7.56,Eliminat,Eliminat,Eliminat,Eliminat,Eliminat,Eliminat,Eliminat,Eliminat,Eliminat,Eliminat,Eliminat,Eliminat
19,Eixample,la Nova Esquerra de l'Eixample,Parc de Joan Miró,,41.378087,2.148094,Propietaris d'animals incívics,7,3.71,3,4,6,2.67,8,3.13,Eliminat,Eliminat,Eliminat,Eliminat,Eliminat,Eliminat,Eliminat,Eliminat,Eliminat,Eliminat,Eliminat,Eliminat
20,Eixample,Sant Antoni,Jardins Mercè Vilaret,,41.382085,2.162408,Propietaris d'animals incívics,6,6,4,4,6,4.5,8,6.75,Eliminat,Eliminat,Eliminat,Eliminat,Eliminat,Eliminat,Eliminat,Eliminat,Eliminat,Eliminat,Eliminat,Eliminat
21,Eixample,la Dreta de l'Eixample,Rambla Catalunya,45,41.390181,2.164189,Mala praxi comercial,6,11,5,3,6,7.33,8,6.25,Eliminat,Eliminat,Eliminat,Eliminat,Eliminat,Eliminat,Eliminat,Eliminat,Eliminat,Eliminat,Eliminat,Eliminat
22,Eixample,l'Antiga Esquerra de l'Eixample,Carrer Provença,226,41.391107,2.156958,Mal ús de contenidors i/o papereres,6,9,4,2,6,5,8,7.25,Eliminat,Eliminat,Eliminat,Eliminat,Eliminat,Eliminat,Eliminat,Eliminat,Eliminat,Eliminat,Eliminat,Eliminat
23,Eixample,l'Antiga Esquerra de l'Eixample,Plaça Letamendi,36,41.388814,2.161379,Propietaris d'animals incívics,6,3.5,3,2.33,6,1.83,8,1.88,Eliminat,Eliminat,Eliminat,Eliminat,Eliminat,Eliminat,Eliminat,Eliminat,Eliminat,Eliminat,Eliminat,Eliminat
24,Eixample,la Nova Esquerra de l'Eixample,Plaça del Gall,,41.3832876,2.1489838,Propietaris d'animals incívics,6,5.17,4,3.75,6,4.17,8,2.75,Eliminat,Eliminat,Eliminat,Eliminat,Eliminat,Eliminat,Eliminat,Eliminat,Eliminat,Eliminat,Eliminat,Eliminat
25,Eixample,la Dreta de l'Eixample,Carrer Pau Claris,118,41.39228,2.167938,Mala praxi comercial,5,7,5,5.2,6,2.83,8,3.13,Eliminat,Eliminat,Eliminat,Eliminat,Eliminat,Eliminat,Eliminat,Eliminat,Eliminat,Eliminat,Eliminat,Eliminat
26,Eixample,el Fort Pienc,Parc de l'Estació del Nord,,41.393207,2.183533,Propietaris d'animals incívics,6,1,5,2.6,5,1.8,8,2.75,6,2.5,5,1.4,2,1,2,2,2,2,3,1
27,Eixample,el Fort Pienc,Jardins Clotilde Cerdà,,41.400208,2.178857,Propietaris d'animals incívics,6,9.17,4,2.5,6,6.17,7,6.14,5,5.2,5,2.6,1,6,3,1.67,1,6,3,6.67
28,Eixample,la Dreta de l'Eixample,Carrer Aragó,374,41.397747,2.172566,Mala praxi comercial,6,5.83,4,5,6,16.67,8,4.13,Eliminat,Eliminat,Eliminat,Eliminat,Eliminat,Eliminat,Eliminat,Eliminat,Eliminat,Eliminat,Eliminat,Eliminat
29,Eixample,la Sagrada Família,Carrer Marina ,225,41.4044918,2.1741419,Mala praxi comercial,7,2.57,5,3,8,1.88,7,2.14,Eliminat,Eliminat,Eliminat,Eliminat,Eliminat,Eliminat,Eliminat,Eliminat,Eliminat,Eliminat,Eliminat,Eliminat
30,Eixample,la Sagrada Família,Passatge Vilaret,,41.406476,2.179432,Propietaris d'animals incívics,6,0.5,4,0.25,8,1.25,7,2.86,5,1.4,4,3,2,1.5,2,0,2,0.5,3,5.67
31,Eixample,la Sagrada Família,Carrer Còrsega,639,41.409836,2.176877,Propietaris d'animals incívics,4,0.25,1,0,5,0,5,0,Eliminat,Eliminat,Eliminat,Eliminat,Eliminat,Eliminat,Eliminat,Eliminat,Eliminat,Eliminat,Eliminat,Eliminat
32,Eixample,la Sagrada Família,Carrer Castillejos,317,41.408541,2.175506,Mala praxi comercial,6,5.83,4,5.25,8,2.38,7,8.86,Eliminat,Eliminat,Eliminat,Eliminat,Eliminat,Eliminat,Eliminat,Eliminat,Eliminat,Eliminat,Eliminat,Eliminat
33,Sants,el Poble Sec,Carrer Margarit,18,41.373789,2.163613,Mal ús de contenidors i/o papereres,5,4.8,4,9.5,6,7.33,7,7.9,6,16,3,6.67,3,10.67,2,2.5,2,13.5,3,2.33
34,Sants,el Poble Sec,Carrer Poeta Cabanyes,36,41.3734379,2.1649865,Mala praxi comercial,5,5.6,4,20.75,6,15.83,7,25.83,6,28,3,11.67,8,18,10,6.5,10,4.7,8,2.38
35,Sants,el Poble Sec,Carrer de la França Xica,35b,41.3719992,2.1568407,Propietaris d'animals incívics,5,16.8,4,8,6,9.67,7,9.24,Eliminat,Eliminat,Eliminat,Eliminat,Eliminat,Eliminat,Eliminat,Eliminat,Eliminat,Eliminat,Eliminat,Eliminat
36,Sants,el Poble Sec,Plaça dels Ocellets ,1,41.3747723,2.1619407,Mal ús de contenidors i/o papereres,5,2.4,4,2.25,6,5.33,7,4.33,6,3.67,3,1.33,9,7.44,10,4.5,11,2.64,7,6.57
37,Sants,el Poble Sec,Carrer Nou de la Rambla,109,41.3745101,2.1696451,Mal ús de contenidors i/o papereres,5,1.4,4,0,6,5.33,7,5.05,Eliminat,Eliminat,Eliminat,Eliminat,Eliminat,Eliminat,Eliminat,Eliminat,Eliminat,Eliminat,Eliminat,Eliminat
38,Sants,la Marina de Port,Jardins de la Mediterrània,,41.359801,2.140702,Mal ús de contenidors i/o papereres,5,7,4,5.25,6,13.17,7,12.6,Eliminat,Eliminat,Eliminat,Eliminat,Eliminat,Eliminat,Eliminat,Eliminat,Eliminat,Eliminat,Eliminat,Eliminat
39,Sants,la Marina de Port,Carrer Mare de Déu del Port,379,41.3628605,2.1392723,Mala praxi comercial,5,5.8,4,1,6,0.5,7,0.36,Eliminat,Eliminat,Eliminat,Eliminat,Eliminat,Eliminat,Eliminat,Eliminat,Eliminat,Eliminat,Eliminat,Eliminat
40,Sants,la Marina de Port,Carrer Aviador Franco,14,41.360633,2.141359,Propietaris d'animals incívics,5,32.8,3,12,6,12.5,7,10.64,6,10.67,3,5.67,2,10.5,2,13.5,2,8,3,13.67
41,Sants,Hostafrancs,Carrer del Vint-i-sis de gener de 1641,18,41.373618,2.141607,Mala praxi comercial,6,2.33,4,12,6,3,6,3.93,Eliminat,Eliminat,Eliminat,Eliminat,1,3,Eliminat,Eliminat,Eliminat,Eliminat,Eliminat,Eliminat
42,Sants,Hostafrancs,Carrer de Vilardell,46,41.374438,2.144466,Mal ús de contenidors i/o papereres,6,3.83,4,4,6,6.67,6,8.52,6,10.33,3,4.67,8,5.13,11,3.91,11,5.45,8,2.13
43,Sants,Hostafrancs,Carretera de la Bordeta,40,41.373731,2.145715,Alt ús de l’espai públic,6,4.17,4,19.5,6,2.33,6,8.36,6,15,3,0.67,2,0.5,2,2,2,35.5,3,3
44,Sants,Hostafrancs,Carrer de la Bordeta ,34,41.373767,2.146076,Mala praxi comercial,6,4.67,4,9.5,6,4.83,6,5.19,7,4.71,3,5.33,9,5.11,10,2.4,10,5,7,1.43
45,Sants,Sants - Badal,Carrer Begur,6,41.37532,2.129246,Mala praxi comercial,6,1.83,3,1.33,6,2.67,6,6.1,Eliminat,Eliminat,Eliminat,Eliminat,Eliminat,Eliminat,Eliminat,Eliminat,Eliminat,Eliminat,Eliminat,Eliminat
46,Sants,Sants,Passeig Sant Antoni,13,41.3769527,2.1367712,Mala praxi comercial,6,0,4,2.5,6,4.33,6,1.29,1,0,1,0,1,7,Eliminat,Eliminat,Eliminat,Eliminat,Eliminat,Eliminat
47,Sants,Sants,Avinguda Madrid,194,41.380886,2.133188,Mala praxi comercial,6,0.5,3,3.33,6,0.83,6,0.62,6,2,3,0,2,1.5,2,1,2,0,3,0
48,Sants,Sants,Carrer dels Comtes de Bell-Lloc,106,41.381034,2.137075,Mala praxi comercial,6,1.33,3,5.33,6,6,6,3.86,Eliminat,Eliminat,Eliminat,Eliminat,Eliminat,Eliminat,Eliminat,Eliminat,Eliminat,Eliminat,Eliminat,Eliminat
49,Les Corts,Pedralbes,Carrer Manila,44,41.389749,2.12568,Mala praxi comercial,6,3,1,3.5,5,1.6,6,5.67,5,0.4,2,0,3,1.67,2,2,2,1.5,3,1
50,Les Corts,Pedralbes,Carrer de Robert Gerhard,1,41.390286,2.126589,Mala praxi comercial,6,0.5,No visitat,No visitat,5,3.6,6,1.5,4,4.5,2,0,2,4.5,2,1.5,2,0,3,0.67
51,Les Corts,Pedralbes,Jardins d'Emília Miret i Soler,,41.390714,2.126737,Propietaris d'animals incívics,6,3,No visitat,No visitat,6,6.67,6,4.5,4,2.5,2,3,2,6,2,2,2,4.5,3,3.33
52,Les Corts,les Corts,Montnegre,54,41.388842,2.140613,Mal ús de contenidors i/o papereres,6,9,1,0,6,5.83,6,7.83,5,9.4,2,6.5,2,0,2,4.5,2,1,3,8
53,Les Corts,les Corts,Jardins de les Infantes,,41.384992,2.133873,Propietaris d'animals incívics,7,5.29,1,2,6,5,6,3.33,5,3.8,2,1,2,4,2,1.5,2,4,3,2.67
54,Les Corts,les Corts,Carrer Guitard,45,41.382831,2.137143,Mal ús de contenidors i/o papereres,7,5.71,1,0,5,9.8,6,9,5,13.4,3,2.67,8,6.13,11,2.55,10,1.9,7,1
55,Les Corts,les Corts,Carrer Galileu,320,41.38587,2.131379,Mala praxi comercial,7,3.86,1,4,6,2.5,6,3.17,5,4.2,2,5.5,8,3.5,11,4.73,10,3.3,7,2.43
56,Les Corts,la Maternitat i Sant Ramon,Carrer de Maria Barrientos,22,41.380718,2.128303,Mala praxi comercial,7,4.14,1,0,6,6.83,6,11.5,5,10,2,0,2,9.5,2,7.5,2,0,3,0.67
57,Les Corts,les Corts,Jardins de Joaquim Ruyra,59,41.38969,2.139216,Mal ús de contenidors i/o papereres,6,1,1,0,6,2.83,6,2.67,5,0.6,2,2,2,0,2,0,2,2,3,2
58,Les Corts,les Corts,Carrer de Can Segalar,1,41.388201,2.131341,Mala praxi comercial,7,4.57,1,6,6,2.5,6,10,5,5,2,1,7,8.43,11,4.09,10,2.2,7,3.86
59,Les Corts,les Corts,Plaça Cava,,41.3858502,2.1420448,Propietaris d'animals incívics,6,8.17,1,2,6,5.17,6,4.5,Eliminat,Eliminat,Eliminat,Eliminat,Eliminat,Eliminat,Eliminat,Eliminat,Eliminat,Eliminat,Eliminat,Eliminat
60,Les Corts,les Corts, Plaça de les corts,,41.386573,2.136315,Propietaris d'animals incívics,6,6.17,1,3,6,2.83,6,4.5,5,2,2,0,2,2.5,2,2,2,6,3,2
61,Les Corts,la Maternitat i Sant Ramon,Carrer de Felipe de Paz,1,41.379713,2.126613,Mala praxi comercial,7,4.71,1,5,6,9.33,6,4.33,5,1.4,2,1,8,4.25,10,3.6,10,3.3,7,1.71
62,Les Corts,la Maternitat i Sant Ramon,Carrer Comandant Benítez,30,41.380518,2.125964,Mala praxi comercial,7,4.29,1,4,6,14.83,6,5.67,5,2.8,2,5,7,1.43,12,1.58,10,1.4,6,1
63,Les Corts,la Maternitat i Sant Ramon,Carrer Riera Blanca,7,41.377258,2.12203,Mala praxi comercial,7,6.43,1,0,6,2.5,6,3.83,Eliminat,Eliminat,Eliminat,Eliminat,Eliminat,Eliminat,Eliminat,Eliminat,Eliminat,Eliminat,Eliminat,Eliminat
64,Les Corts,les Corts,Plaça del Sol de Baix,,41.381842,2.129144,Propietaris d'animals incívics,7,3.43,1,4,6,0.83,6,2.67,5,2.4,2,0.5,2,2,2,2.5,2,1,3,0.33
65,Sarrià Sant Gervasi,Sant Gervasi - la Bonanova,Plaça Joaquim Folguera ,6,41.405641,2.138522,Mala praxi comercial,6,7,5,2.4,3,12.67,6,2.89,6,5.83,4,2.5,9,6.44,9,5.89,9,6.89,8,7.63
66,Sarrià Sant Gervasi,Sant Gervasi - la Bonanova,Plaça Camp ,3,41.403614,2.136153,Mala praxi comercial,6,11.67,5,14.6,3,11.33,6,4.78,6,5.33,4,2,10,6.1,9,4.78,9,2,8,2.13
67,Sarrià Sant Gervasi,Sant Gervasi - la Bonanova,Passatge Maluquer,12,41.408901,2.136771,Propietaris d'animals incívics,6,5.83,5,2.8,3,4.67,6,3.56,3,2.67,5,2.6,2,9.5,2,0,2,1,3,5.33
68,Sarrià Sant Gervasi,el Putxet i el Farró,Ronda General Mitre,206,41.405494,2.145811,Mal ús de la recollida pneumàtica,5,4.8,4,1.25,3,9.33,6,5.89,Eliminat,Eliminat,Eliminat,Eliminat,Eliminat,Eliminat,Eliminat,Eliminat,Eliminat,Eliminat,Eliminat,Eliminat
69,Sarrià Sant Gervasi,Sant Gervasi - la Bonanova,Carrer de Pujol ,6,41.404566,2.136933,Mala praxi comercial,6,4.33,5,8.4,3,2.33,6,0.83,6,2.5,4,2,2,5.5,2,0,2,0,3,5.33
70,Sarrià Sant Gervasi,Sant Gervasi - Galvany,Parc del Turó Park,,41.394551,2.140714,Propietaris d'animals incívics,5,1,5,0.6,1,En obres,4,0,Eliminat,Eliminat,Eliminat,Eliminat,Eliminat,Eliminat,Eliminat,Eliminat,Eliminat,Eliminat,Eliminat,Eliminat
71,Sarrià Sant Gervasi,Sant Gervasi - Galvany,Jardins de les Tres Torres,,41.398665,2.134121,Propietaris d'animals incívics,5,8,5,3.6,3,3.33,5,4.27,4,1.5,4,1,2,6.5,2,0,2,1,3,3
72,Sarrià Sant Gervasi,Sant Gervasi - la Bonanova,Carrer Mandri,32,41.403263,2.134245,Mala praxi comercial,5,9.6,4,4.25,3,11,6,6.39,6,4.5,4,2,2,3.5,2,0,2,13,3,4.67
73,Sarrià Sant Gervasi,Sant Gervasi - Galvany,Passatge de Marimon ,13,41.394672,2.147723,Mal ús de contenidors i/o papereres,5,13.6,5,16,3,15,6,21.83,5,9.2,4,13,8,12.75,12,5.17,10,3.9,8,6.25
74,Sarrià Sant Gervasi,Sant Gervasi - Galvany,Carrer de Sant Elies,9,41.401514,2.145274,Mal ús de contenidors i/o papereres,4,1.75,5,5.6,2,8,6,18.44,6,7.83,4,12.75,2,4.5,2,4.5,2,1.5,3,2.67
75,Sarrià Sant Gervasi,Sarrià,Parc de Joan Reventós,,41.402263,2.116962,Propietaris d'animals incívics,4,10.25,5,8.4,3,3.67,6,5.11,Eliminat,Eliminat,Eliminat,Eliminat,Eliminat,Eliminat,Eliminat,Eliminat,Eliminat,Eliminat,Eliminat,Eliminat
76,Sarrià Sant Gervasi,Sarrià,Jardins de la Vil·la Amèlia,,41.392513,2.122708,Propietaris d'animals incívics,4,3.5,5,0.6,3,0,6,0.83,Eliminat,Eliminat,Eliminat,Eliminat,Eliminat,Eliminat,Eliminat,Eliminat,Eliminat,Eliminat,Eliminat,Eliminat
77,Sarrià Sant Gervasi,Sant Gervasi - Galvany,Carrer de Túset ,34,41.396667,2.151413,Mala praxi comercial,4,9.5,4,4.5,3,0.67,6,4.72,Eliminat,Eliminat,Eliminat,Eliminat,Eliminat,Eliminat,Eliminat,Eliminat,Eliminat,Eliminat,Eliminat,Eliminat
78,Sarrià Sant Gervasi,Sant Gervasi - Galvany,Carrer de Dènia,16,41.398231,2.149171,Mala praxi comercial,4,15.75,5,16.8,3,13.33,6,12.33,Eliminat,Eliminat,Eliminat,Eliminat,Eliminat,Eliminat,Eliminat,Eliminat,Eliminat,Eliminat,Eliminat,Eliminat
79,Sarrià Sant Gervasi,Sant Gervasi - Galvany,Carrer de Lincoln,9,41.400241,2.150296,Mala praxi comercial,4,24.5,5,5.8,3,16.33,6,23.47,6,10.17,4,10.25,9,11.67,10,4.6,11,4.45,5,1.8
80,Sarrià Sant Gervasi,Sant Gervasi - Galvany,Carrer d'Aribau ,216,41.394862,2.150966,Mala praxi comercial,4,7.75,5,16.8,3,2.33,6,15.97,6,2.5,4,0.75,10,0.7,11,4.18,9,8.33,7,8.43
81,Gràcia,la Vila de Gràcia,Carrer Bonavista ,30,41.398845,2.160707,Mala praxi comercial,5,10.2,4,2,7,7.71,7,2.43,5,3,3,1.33,10,5,11,6,10,5.2,8,5.5
82,Gràcia,la Vila de Gràcia,Carrer de Sèneca ,2,41.397689,2.157273,Mal ús de contenidors i/o papereres,6,6.67,4,20.25,7,9.43,7,7,4,13.5,4,3.75,8,5.5,11,4.55,11,5.55,8,7.38
83,Gràcia,la Vila de Gràcia,Plaça del Poble Romaní,1,41.401859,2.160601,Propietaris d'animals incívics,5,3.6,4,7,7,2,7,2.57,Eliminat,Eliminat,Eliminat,Eliminat,Eliminat,Eliminat,Eliminat,Eliminat,Eliminat,Eliminat,Eliminat,Eliminat
84,Gràcia,la Vila de Gràcia,Plaça de la Vila de Gràcia,,41.4002451,2.1573186,Mal ús de contenidors i/o papereres,6,1.33,4,4,7,3.29,7,3.71,5,10.6,4,1,2,0,2,4,2,11,3,5.67
85,Gràcia,la Vila de Gràcia,Carrer Astúries ,20,41.403019,2.153874,Mala praxi comercial,7,12.57,4,9,7,9.14,7,4.14,6,6.5,4,4.25,8,4.88,11,9.82,11,8.36,7,9.71
86,Gràcia,la Vila de Gràcia,Carrer Torrent de l'Olla ,118,41.402183,2.157231,Mala praxi comercial,7,8.86,4,12.25,5,12,5,6.6,6,7.83,5,8.2,8,7.88,11,4.27,11,3.18,8,3.88
87,Gràcia,la Vila de Gràcia,Carrer Montseny,17,41.401969,2.154724,Mala praxi comercial,7,5.14,4,14,7,7.21,7,4.71,4,3.75,4,4.5,2,2.5,2,7,2,10,3,3.67
88,Gràcia,la Vila de Gràcia,Plaça Llibertat,,41.3997803,2.1539004,Mala praxi comercial,7,4.86,4,11.25,6,12.83,7,13.43,7,12.14,4,2.75,2,16.5,3,2.67,2,1.5,3,5.67
89,Gràcia,la Vila de Gràcia,Carrer de Nil i Fabra ,14,41.405879,2.151446,Mala praxi comercial,7,5.86,4,4.25,7,4.71,7,5.14,Eliminat,Eliminat,Eliminat,Eliminat,Eliminat,Eliminat,Eliminat,Eliminat,Eliminat,Eliminat,Eliminat,Eliminat
90,Gràcia,la Vila de Gràcia,Plaça Lesseps ,12,41.407152,2.151195,Mal ús de la recollida pneumàtica,7,1.57,4,1,7,2,7,0.29,Eliminat,Eliminat,Eliminat,Eliminat,Eliminat,Eliminat,Eliminat,Eliminat,Eliminat,Eliminat,Eliminat,Eliminat
91,Gràcia,Vallcarca i els Penitents,Avinguda Vallcarca ,18,41.408519,2.149123,Mal ús de la recollida pneumàtica,7,0.86,4,0,7,0.29,7,0.43,Eliminat,Eliminat,Eliminat,Eliminat,Eliminat,Eliminat,Eliminat,Eliminat,Eliminat,Eliminat,Eliminat,Eliminat
92,Gràcia,la Vila de Gràcia,Travessera de Dalt ,26,41.408468,2.153044,Mal ús de la recollida pneumàtica,7,7.57,3,6.33,7,3,7,3,Eliminat,Eliminat,Eliminat,Eliminat,Eliminat,Eliminat,Eliminat,Eliminat,Eliminat,Eliminat,Eliminat,Eliminat
93,Gràcia,la Vila de Gràcia,Rambla del Prat ,1,41.401826,2.152743,Mal ús de la recollida pneumàtica,6,1,4,5,6,5.83,7,0.57,7,0.86,4,1,2,0,2,0,2,0,3,0
94,Gràcia,la Vila de Gràcia,Carrer Carolines,4,41.403895,2.151535,Mala praxi comercial,6,12.17,4,15,7,14.29,7,10.29,8,11.75,3,3.67,9,6,11,6.73,11,5.45,7,5.29
95,Gràcia,la Vila de Gràcia,Carrer Berga,32,41.400966,2.152673,Mala praxi comercial,6,6.83,4,23,7,4.14,7,5.14,Eliminat,Eliminat,Eliminat,Eliminat,Eliminat,Eliminat,Eliminat,Eliminat,Eliminat,Eliminat,Eliminat,Eliminat
96,Gràcia,la Vila de Gràcia,Carrer Gran de gracia ,159,41.402724,2.152389,Mal ús de contenidors i/o papereres,6,10.83,4,7.88,7,13.71,7,15.43,6,4,3,0.67,7,8.86,11,10.36,11,10.18,7,4
97,Horta Guinardó,la Teixonera,Carrer de Santa Rosalia,53,41.421926,2.147103,Mala praxi comercial,6,2.17,4,4.75,9,4.67,10,9.27,5,2.8,1,4,2,1,2,0,2,3,2,1
98,Horta Guinardó,el Carmel,Carrer de Batet,1,41.421115,2.150347,Mal ús de contenidors i/o papereres,6,2.83,4,4.25,9,4,10,14.38,6,9,3,1.33,8,7.13,10,5.3,11,5.64,8,5.75
99,Horta Guinardó,el Carmel,Plaça Salvador Allende,,41.4202734,2.1517337,Mal ús de contenidors i/o papereres,6,1.5,4,3.25,9,4.44,10,7.25,6,5.33,3,5,2,5,2,2,2,3,3,4
100,Horta Guinardó,el Carmel,Carrer Santuari,49,41.420764,2.152123,Mala praxi comercial,6,0.42,4,0.5,9,1.22,10,2.6,6,2.67,3,0.67,2,0,2,3,2,0,4,3.5
101,Horta Guinardó,el Carmel,Carrer de Sigüenza ,23,41.424481,2.155097,Mal ús de contenidors i/o papereres,5,5,4,3.75,9,10.89,9,16.12,Eliminat,Eliminat,Eliminat,Eliminat,Eliminat,Eliminat,Eliminat,Eliminat,Eliminat,Eliminat,Eliminat,Eliminat
102,Horta Guinardó,el Carmel,Plaça Pastrana,,41.42541,2.156265,Mala praxi comercial,6,4.5,4,8.5,9,4.44,10,7.08,Eliminat,Eliminat,Eliminat,Eliminat,Eliminat,Eliminat,Eliminat,Eliminat,Eliminat,Eliminat,Eliminat,Eliminat
103,Horta Guinardó,el Carmel,Carrer Dante Alhieri ,108,41.4270623,2.1557068,Mala praxi comercial,6,5.5,4,10.75,8,9.38,10,8.83,6,10,3,3,1,3,2,3.5,2,12,4,9.5
104,Horta Guinardó,Horta,Plaça Eivissa,1,41.42991,2.16126,Mala praxi comercial,5,3,4,6,Eliminat,Eliminat,Eliminat,Eliminat,Eliminat,Eliminat,Eliminat,Eliminat,Eliminat,Eliminat,Eliminat,Eliminat,Eliminat,Eliminat,Eliminat,Eliminat
105,Horta Guinardó,el Guinardó,Plaça el Nen de la Rutlla,,41.418791,2.171676,Alt ús de l’espai públic,6,0.33,3,1,Eliminat,Eliminat,Eliminat,Eliminat,Eliminat,Eliminat,Eliminat,Eliminat,Eliminat,Eliminat,Eliminat,Eliminat,Eliminat,Eliminat,Eliminat,Eliminat
106,Horta Guinardó,el Congrés i els Indians,Passeig Maragall,168,41.424894,2.17686,"Efecte ""crida""",6,6.5,3,3.33,Eliminat,Eliminat,Eliminat,Eliminat,Eliminat,Eliminat,Eliminat,Eliminat,Eliminat,Eliminat,Eliminat,Eliminat,Eliminat,Eliminat,Eliminat,Eliminat
107,Horta Guinardó,el Guinardó,Carrer de Juliol,14,41.417784,2.174285,Mal ús de contenidors i/o papereres,5,9.6,3,2.67,Eliminat,Eliminat,Eliminat,Eliminat,5,8.6,4,3.25,2,2,2,1,2,2.5,1,0
108,Horta Guinardó,el Guinardó,Jardins de Federica Montseny ,0,41.418696,2.175917,Alt ús de l’espai públic,5,5,3,6.33,9,4,10,6.06,Eliminat,Eliminat,Eliminat,Eliminat,Eliminat,Eliminat,Eliminat,Eliminat,Eliminat,Eliminat,Eliminat,Eliminat
109,Horta Guinardó,el Carmel,Carrer Calderón de la Barca,56,41.421542,2.155462,Alt ús de l’espai públic,6,13,4,14.5,9,8.33,10,10.83,6,15.83,3,9.33,2,35,2,16.5,2,5,4,6.75
110,Horta Guinardó,el Carmel,Carretera del Carmel,82,41.41727,2.15844,Mal ús de contenidors i/o papereres,6,1,4,3.5,9,4.44,10,5.3,6,3,3,8,2,6,2,1,2,8,4,6
111,Horta Guinardó,Can Baró,Carrer de José Millan González,1,41.4166737,2.159482,Mal ús de contenidors i/o papereres,5,15,4,11.5,9,10.56,10,9.69,6,4.5,3,11.67,2,29,2,3.5,2,2,4,9.25
112,Horta Guinardó,el Carmel,Carrer del Llobregós ,120,41.424484,2.156199,Mal ús de contenidors i/o papereres,6,6.17,4,3,9,4.67,10,6.95,6,19.33,3,1.33,7,3.71,9,4.89,10,7.5,10,1.6
113,Nou Barris,Ciutat Meridiana,Carrer de Les Agudes ,132,41.46132,2.17615,Punt poc accessible per els serveis de neteja,6,14.83,Eliminat,Eliminat,Eliminat,Eliminat,Eliminat,Eliminat,Eliminat,Eliminat,Eliminat,Eliminat,Eliminat,Eliminat,Eliminat,Eliminat,Eliminat,Eliminat,Eliminat,Eliminat
114,Nou Barris,Ciutat Meridiana,Carrer Pedraforca ,102,41.4623659,2.1755329,Alt ús de l’espai públic,6,6.67,Eliminat,Eliminat,Eliminat,Eliminat,Eliminat,Eliminat,Eliminat,Eliminat,Eliminat,Eliminat,Eliminat,Eliminat,Eliminat,Eliminat,Eliminat,Eliminat,Eliminat,Eliminat
115,Nou Barris,Torre Baró,Avinguda d'Escalopi Cancer,1,41.4600593,2.1814099,Mal ús de contenidors i/o papereres,6,0.83,Eliminat,Eliminat,Eliminat,Eliminat,Eliminat,Eliminat,Eliminat,Eliminat,Eliminat,Eliminat,Eliminat,Eliminat,Eliminat,Eliminat,Eliminat,Eliminat,Eliminat,Eliminat
116,Nou Barris,Ciutat Meridiana,Carrer de Vallcivera ,17,41.460138,2.177673,Mala praxi comercial,6,14.33,Eliminat,Eliminat,Eliminat,Eliminat,Eliminat,Eliminat,Eliminat,Eliminat,Eliminat,Eliminat,Eliminat,Eliminat,Eliminat,Eliminat,Eliminat,Eliminat,Eliminat,Eliminat
117,Nou Barris,les Roquetes,Plaça Roquetes,,41.448278,2.176722,Propietaris d'animals incívics,6,24.5,4,19.25,6,17.5,6,12.17,6,13.83,4,5.75,2,3.5,1,4,2,4,3,8.67
118,Nou Barris,la Prosperitat,Carrer d'Enric Casanovas,49,41.440825,2.179353,Mal ús de contenidors i/o papereres,6,10.83,2,5,5,15.8,6,16.5,6,13.17,4,7.5,9,8.78,11,5.55,11,4.18,6,5
119,Nou Barris,la Prosperitat,Carrer de la Font d'en Canyelles,20,41.439517,2.177664,Mala praxi comercial,6,10,3,12,6,8.67,6,9.67,6,19,4,18.25,8,9.25,11,8.27,11,5.18,6,5.67
120,Nou Barris,la Prosperitat,Via Júlia ,144,41.4442,2.17909,Mala praxi comercial,6,15.5,3,11.67,6,4.33,6,16.17,6,6.67,4,8,8,24.88,11,4,11,4.45,6,7.5
121,Nou Barris,el Turó de la Peira,Carrer d'Aneto ,34,41.433089,2.169978,Mala praxi comercial,6,7.92,Eliminat,Eliminat,Eliminat,Eliminat,Eliminat,Eliminat,Eliminat,Eliminat,Eliminat,Eliminat,Eliminat,Eliminat,Eliminat,Eliminat,Eliminat,Eliminat,Eliminat,Eliminat
122,Nou Barris,Vilapicina i la Torre Llobeta,Plaça d'Alvaro Cunqueiro,,41.428167,2.169432,Alt ús de l’espai públic,6,23.5,Eliminat,Eliminat,Eliminat,Eliminat,Eliminat,Eliminat,Eliminat,Eliminat,Eliminat,Eliminat,Eliminat,Eliminat,Eliminat,Eliminat,Eliminat,Eliminat,Eliminat,Eliminat
123,Nou Barris,Vilapicina i la Torre Llobeta,Carrer Serrano ,40,41.428806,2.173412,Mal ús de contenidors i/o papereres,6,12.17,Eliminat,Eliminat,Eliminat,Eliminat,Eliminat,Eliminat,Eliminat,Eliminat,Eliminat,Eliminat,Eliminat,Eliminat,Eliminat,Eliminat,Eliminat,Eliminat,Eliminat,Eliminat
124,Nou Barris,el Turó de la Peira,Carrer del Cadí,19,41.431292,2.168451,Mala praxi comercial,6,5,Eliminat,Eliminat,Eliminat,Eliminat,Eliminat,Eliminat,Eliminat,Eliminat,Eliminat,Eliminat,Eliminat,Eliminat,Eliminat,Eliminat,Eliminat,Eliminat,Eliminat,Eliminat
125,Nou Barris,Vilapicina i la Torre Llobeta,Passeig de Fabra i puig,157,41.430125,2.178881,Mala praxi comercial,6,4.67,Eliminat,Eliminat,Eliminat,Eliminat,Eliminat,Eliminat,Eliminat,Eliminat,Eliminat,Eliminat,Eliminat,Eliminat,Eliminat,Eliminat,Eliminat,Eliminat,Eliminat,Eliminat
126,Nou Barris,Porta,Jardins del Petit Príncep,,41.431665,2.175382,Propietaris d'animals incívics,6,15.83,Eliminat,Eliminat,Eliminat,Eliminat,Eliminat,Eliminat,Eliminat,Eliminat,Eliminat,Eliminat,Eliminat,Eliminat,Eliminat,Eliminat,Eliminat,Eliminat,Eliminat,Eliminat
127,Nou Barris,Porta,Passeig de Fabra i puig,202,41.430386,2.178244,Mala praxi comercial,6,2.83,Eliminat,Eliminat,Eliminat,Eliminat,Eliminat,Eliminat,Eliminat,Eliminat,Eliminat,Eliminat,Eliminat,Eliminat,Eliminat,Eliminat,Eliminat,Eliminat,Eliminat,Eliminat
128,Nou Barris,Vilapicina i la Torre Llobeta,Plaça de Virrei Amat,9 bis,41.43015,2.175238,Mala praxi comercial,6,2.17,Eliminat,Eliminat,Eliminat,Eliminat,Eliminat,Eliminat,Eliminat,Eliminat,Eliminat,Eliminat,Eliminat,Eliminat,Eliminat,Eliminat,Eliminat,Eliminat,Eliminat,Eliminat
129,Sant Andreu,Navas,Carrer Espronceda,348,41.418379,2.187527,Mal ús de contenidors i/o papereres,6,10.17,5,6,7,4.57,6,14.83,Eliminat,Eliminat,Eliminat,Eliminat,Eliminat,Eliminat,Eliminat,Eliminat,Eliminat,Eliminat,Eliminat,Eliminat
130,Sant Andreu,Navas,Carrer Biscaia,381,41.41816,2.185157,Mala praxi comercial,6,6,5,4.4,7,7.57,6,7.67,Eliminat,Eliminat,Eliminat,Eliminat,Eliminat,Eliminat,Eliminat,Eliminat,Eliminat,Eliminat,Eliminat,Eliminat
131,Sant Andreu,la Sagrera,Avinguda Meridiana,267,41.422034,2.186475,Mala praxi comercial,6,22,5,4,6,1,6,5,Eliminat,Eliminat,Eliminat,Eliminat,1,0,Eliminat,Eliminat,Eliminat,Eliminat,Eliminat,Eliminat
132,Sant Andreu,Navas,Plaça Islàndia,1,41.41699,2.188553,Problemàtica social,6,1.33,5,2.2,7,6.29,6,4.5,Eliminat,Eliminat,Eliminat,Eliminat,Eliminat,Eliminat,Eliminat,Eliminat,Eliminat,Eliminat,Eliminat,Eliminat
133,Sant Andreu,Sant Andreu,Carrer Gran de Sant Andreu,146,41.431792,2.189423,Mala praxi comercial,5,8.8,4,3.25,7,13.86,6,3.83,Eliminat,Eliminat,Eliminat,Eliminat,Eliminat,Eliminat,Eliminat,Eliminat,Eliminat,Eliminat,Eliminat,Eliminat
134,Sant Andreu,Sant Andreu,Carrer Gran de Sant Andreu,266,41.435693,2.189805,Mala praxi comercial,5,15,4,5.75,7,11,6,4.5,Eliminat,Eliminat,Eliminat,Eliminat,Eliminat,Eliminat,Eliminat,Eliminat,Eliminat,Eliminat,Eliminat,Eliminat
135,Sant Andreu,Sant Andreu,Carrer de les Monges,10,41.430665,2.187957,Mal ús de contenidors i/o papereres,5,5.4,4,3.75,7,9.29,6,6.33,Eliminat,Eliminat,Eliminat,Eliminat,Eliminat,Eliminat,Eliminat,Eliminat,Eliminat,Eliminat,Eliminat,Eliminat
136,Sant Andreu,Sant Andreu,Carrer de Neopàtria,82,41.4286822,2.1896865,Mal ús de contenidors i/o papereres,6,2,4,3.5,7,2.29,6,6.83,Eliminat,Eliminat,Eliminat,Eliminat,2,4,Eliminat,Eliminat,Eliminat,Eliminat,Eliminat,Eliminat
137,Sant Andreu,el Bon Pastor,Carrer de Sant Adrià,121,41.436287,2.205034,Mala praxi comercial,6,4.83,5,2.4,6,6.67,5,4.4,1,1,Eliminat,Eliminat,Eliminat,Eliminat,Eliminat,Eliminat,Eliminat,Eliminat,Eliminat,Eliminat
138,Sant Andreu,el Bon Pastor,Passeig d'Enric Sanchís,24,41.434376,2.205505,Mal ús de contenidors i/o papereres,6,25.5,5,9,6,9.17,4,11.25,6,9.83,3,7,2,19,2,3,2,2.5,3,5.33
139,Sant Andreu,el Bon Pastor,Carrer de Sant Adrià ,103,41.436157,2.203834,Mala praxi comercial,6,5,5,6,6,10.67,5,8.4,6,5.67,3,5.33,2,1.5,2,0,2,2,3,0.67
140,Sant Andreu,el Bon Pastor,Carrer de l'Estadella,98,41.4355944,2.2085273,Poca afluència de gent,6,1.17,5,2,6,2.83,5,5.6,Eliminat,Eliminat,Eliminat,Eliminat,Eliminat,Eliminat,Eliminat,Eliminat,Eliminat,Eliminat,Eliminat,Eliminat
141,Sant Andreu,la Trinitat Vella,Carrer d'Aúsona,92,41.452998,2.190434,"Efecte ""crida""",5,12.6,4,19.5,6,23,6,15.67,6,40,3,8,2,13,2,7.5,2,5,3,7.67
142,Sant Andreu,la Trinitat Vella,Carrer Mare de Déu de Lorda,23,41.451433,2.1920529,Mal ús de contenidors i/o papereres,5,12.3,4,19.5,6,7.67,6,15.83,5,8,3,14.67,2,3.5,2,10,2,2,3,7.33
143,Sant Andreu,la Trinitat Vella,Carrer de la Foradada,65,41.452975,2.193025,Mal ús de contenidors i/o papereres,4,3.5,4,11.5,6,9.67,6,10.33,4,8.25,3,6.67,2,2,1,8,1,0,3,2.67
144,Sant Andreu,la Trinitat Vella,Carrer del Turó de la Trinitat,71,41.451583,2.190843,Mal ús de contenidors i/o papereres,5,2.6,4,5.25,6,7.33,6,8.33,5,7.6,3,4.33,2,1,2,4,2,1,3,3.67
145,Sant Martí,el Camp de l'Arpa del Clot,Carrer de Finestrat,23,41.41185,2.180967,Mala praxi comercial,4,3.75,3,8,5,8.2,5,6.6,7,6.14,3,1.33,2,9,2,7,2,5,3,5
146,Sant Martí,el Camp de l'Arpa del Clot,Carrer Trinxant,81,41.41535,2.184448,Mal ús de contenidors i/o papereres,4,7.25,4,4.5,5,1.8,5,19.4,Eliminat,Eliminat,Eliminat,Eliminat,Eliminat,Eliminat,Eliminat,Eliminat,Eliminat,Eliminat,Eliminat,Eliminat
147,Sant Martí,el Clot,Carrer del Clot,42,41.407067,2.187981,Mala praxi comercial,5,2,4,3.25,5,6.2,5,3,7,3.29,4,3.5,2,1.5,2,6,2,0,3,6.67
148,Sant Martí,el Clot,Parc del Clot,1,41.408006,2.190281,Alt ús de l’espai públic,5,1.2,4,3.25,5,4.6,5,3.6,Eliminat,Eliminat,Eliminat,Eliminat,Eliminat,Eliminat,Eliminat,Eliminat,Eliminat,Eliminat,Eliminat,Eliminat
149,Sant Martí,el Poblenou,Carrer Pujades,155,41.400688,2.199166,Alt ús de l’espai públic,5,8.4,4,10.38,5,3.8,5,3.8,Eliminat,Eliminat,Eliminat,Eliminat,Eliminat,Eliminat,Eliminat,Eliminat,Eliminat,Eliminat,Eliminat,Eliminat
150,Sant Martí,el Poblenou,Carrer Lope de Vega,8,41.401444,2.207748,Mal ús de contenidors i/o papereres,4,8.5,4,3.5,5,6.8,5,7.6,Eliminat,Eliminat,Eliminat,Eliminat,Eliminat,Eliminat,Eliminat,Eliminat,Eliminat,Eliminat,Eliminat,Eliminat
151,Sant Martí,el Poblenou,Carrer de Llull,202,41.401349,2.20281,Mala praxi comercial,5,10,4,3.75,5,12.2,5,17.8,7,13.86,3,7.33,9,8.89,10,5.8,9,18.56,8,10.5
152,Sant Martí,el Poblenou,Plaça de Sant Bernat Calbó,1,41.399717,2.204827,Mala praxi comercial,5,8.8,4,11.75,5,4.4,5,13.2,Eliminat,Eliminat,Eliminat,Eliminat,Eliminat,Eliminat,Eliminat,Eliminat,Eliminat,Eliminat,Eliminat,Eliminat
153,Sant Martí,el Besòs i el Maresme,Carrer de Cristòfol de Moura,229,41.416444,2.213394,Mala praxi comercial,4,5.5,4,6,5,4,4,5,Eliminat,Eliminat,Eliminat,Eliminat,Eliminat,Eliminat,Eliminat,Eliminat,Eliminat,Eliminat,Eliminat,Eliminat
154,Sant Martí,el Besòs i el Maresme,Carrer d'Alfons el Magnànim,2,41.4136285,2.2184535,Mal ús de la recollida pneumàtica,5,230,4,4,5,3.2,4,5.75,4,6.5,Eliminat,Eliminat,Eliminat,Eliminat,Eliminat,Eliminat,Eliminat,Eliminat,Eliminat,Eliminat
155,Sant Martí,el Besòs i el Maresme,Carrer de Pere Moragues,13,41.417199,2.215648,Alt ús de l’espai públic,5,12.6,4,16.25,5,3.6,4,13,7,10.29,3,14.67,2,2.5,2,6,2,13.5,3,8
156,Sant Martí,el Besòs i el Maresme,Rambla Prim,19,41.411663,2.218331,Mala praxi comercial,5,8,4,4.75,5,5,4,7,Eliminat,Eliminat,Eliminat,Eliminat,Eliminat,Eliminat,Eliminat,Eliminat,Eliminat,Eliminat,Eliminat,Eliminat
157,Sant Martí,la Verneda i la Pau,Rambla de Guipúscoa,131,41.421885,2.203884,Mala praxi comercial,5,3.4,4,8,5,3.2,3,15.33,Eliminat,Eliminat,Eliminat,Eliminat,Eliminat,Eliminat,Eliminat,Eliminat,Eliminat,Eliminat,Eliminat,Eliminat
158,Sant Martí,la Verneda i la Pau,Carrer Puigcerdà,283,41.421636,2.2011,Alt ús de l’espai públic,5,4.6,3,3.67,5,1.2,4,4.5,Eliminat,Eliminat,Eliminat,Eliminat,Eliminat,Eliminat,Eliminat,Eliminat,Eliminat,Eliminat,Eliminat,Eliminat
159,Sant Martí,Sant Martí de Provençals,Gran Via de les Corts Catalanes,1025,41.413977,2.200135,Mala praxi comercial,5,7,4,7.5,5,11.4,4,4.75,6,6.83,3,2,10,1.6,9,1.56,10,4.1,8,4.25
160,Sant Martí,Sant Martí de Provençals,Carrer Agricultura,301,41.420041,2.198511,Alt ús de l’espai públic,5,3.4,4,4.5,5,6.8,4,9.25,Eliminat,Eliminat,Eliminat,Eliminat,Eliminat,Eliminat,Eliminat,Eliminat,Eliminat,Eliminat,Eliminat,Eliminat
161,Ciutat Vella,el Raval,Carrer Carretes,47,41.377152,2.1678017,"Efecte ""crida""",No visitat,No visitat,4,15.5,6,22.33,6,19.33,6,28.17,5,8.2,2,15,2,6.5,3,7.33,2,1.5
162,Ciutat Vella,el Raval,Carrer de Sant Antoni Abat,13,41.3794732,2.1655686,Mala praxi comercial,No visitat,No visitat,5,5.6,6,8.67,5,11.1,6,6,5,3.6,2,2,2,0,2,2,3,5.33
163,Ciutat Vella,"Sant Pere, Santa Caterina i la Ribera",Carrer de Sant Pere Mitjà,33,41.387862,2.177345,Mal ús de la recollida pneumàtica,No visitat,No visitat,5,2.4,6,2.5,6,1.17,Eliminat,Eliminat,Eliminat,Eliminat,Eliminat,Eliminat,Eliminat,Eliminat,Eliminat,Eliminat,Eliminat,Eliminat
164,Ciutat Vella,"Sant Pere, Santa Caterina i la Ribera",Carrer de Sant Pere Mitjà,18,41.387626,2.17717,Mal ús de la recollida pneumàtica,No visitat,No visitat,5,9.9,6,8.5,6,5,Eliminat,Eliminat,Eliminat,Eliminat,Eliminat,Eliminat,Eliminat,Eliminat,Eliminat,Eliminat,Eliminat,Eliminat
165,Ciutat Vella,el Barri Gòtic,Placeta de la Rosa,,41.380272,2.178016,Propietaris d'animals incívics,No visitat,No visitat,5,4.2,6,8.33,6,4.33,Eliminat,Eliminat,Eliminat,Eliminat,Eliminat,Eliminat,Eliminat,Eliminat,Eliminat,Eliminat,Eliminat,Eliminat
166,Horta Guinardó,el Guinardó,Passatge dels Garrofers,26,41.418703,2.172691,Mal ús de contenidors i/o papereres,No visitat,No visitat,No visitat,No visitat,8,0,10,1.07,6,5.33,3,0.33,2,0,2,3,2,4,1,0
167,Horta Guinardó,el Guinardó,Avinguda Mare de Déu de Montserrat ,288,41.424676,2.176478,"Efecte ""crida""",No visitat,No visitat,No visitat,No visitat,9,2.11,9,2.86,6,7.17,3,2.67,9,3.44,11,1.91,11,1.27,9,4
168,Horta Guinardó,el Guinardó,Carrer de Maspons i Labrós,5,41.418212,2.174132,Mal ús de contenidors i/o papereres,No visitat,No visitat,No visitat,No visitat,9,0.89,9,3.78,6,7,3,4,2,4,3,6.33,2,6.5,1,9
169,Horta Guinardó,el Carmel,"José Milán Gonzalez-->Passatge d'En Xinxó, 2",,41.4263773,2.1545413,Mal ús de contenidors i/o papereres,No visitat,No visitat,No visitat,No visitat,9,3.22,10,4.8,6,2.17,3,10.33,8,7,10,5.5,10,6.4,8,6.25
170,Nou Barris,la Prosperitat,Carrer del Pou ,29,41.443965,2.18131,Mal ús de contenidors i/o papereres,No visitat,No visitat,3,2.33,5,3.8,6,2.67,Eliminat,Eliminat,Eliminat,Eliminat,Eliminat,Eliminat,Eliminat,Eliminat,Eliminat,Eliminat,Eliminat,Eliminat
171,Nou Barris,la Prosperitat,Plaça Verda,,41.442554,2.183756,Propietaris d'animals incívics,No visitat,No visitat,3,3,4,4.5,6,6.33,6,1.33,4,2.5,2,0,2,10,2,3,3,1.67
172,Nou Barris,la Prosperitat,Carrer Pablo Iglesias ,33,41.443723,2.18157,Mal ús de contenidors i/o papereres,No visitat,No visitat,3,16.33,5,5.6,6,8.67,Eliminat,Eliminat,Eliminat,Eliminat,1,10,Eliminat,Eliminat,1,3,Eliminat,Eliminat
173,Nou Barris,la Prosperitat,Plaça de la Prosperitat,,41.439806,2.178522,Propietaris d'animals incívics,No visitat,No visitat,3,5,6,1.17,6,1.5,Eliminat,Eliminat,Eliminat,Eliminat,Eliminat,Eliminat,Eliminat,Eliminat,Eliminat,Eliminat,Eliminat,Eliminat
174,Nou Barris,la Prosperitat,Plaça Àngel Pestanya,,41.442017,2.180294,Alt ús de l’espai públic,No visitat,No visitat,3,5,6,10.33,6,8.17,Eliminat,Eliminat,Eliminat,Eliminat,1,6,Eliminat,Eliminat,Eliminat,Eliminat,Eliminat,Eliminat
175,Nou Barris,les Roquetes,Plaça de les Dones de Nou Barris,,41.447443,2.179411,Propietaris d'animals incívics,No visitat,No visitat,4,2.75,6,2.17,6,3.67,Eliminat,Eliminat,Eliminat,Eliminat,Eliminat,Eliminat,Eliminat,Eliminat,Eliminat,Eliminat,Eliminat,Eliminat
176,Nou Barris,les Roquetes,Carrer de les Torres ,40,41.446995,2.176556,Mal ús de contenidors i/o papereres,No visitat,No visitat,4,7.25,6,5.33,6,16.67,6,16.5,4,5.5,2,2,1,4,2,7.5,3,4.67
177,Nou Barris,les Roquetes,Carrer Romaní ,17,41.44673,2.175394,Mal ús de contenidors i/o papereres,No visitat,No visitat,4,11.5,6,4.17,6,14.67,6,14.17,4,14,2,3.5,1,4,2,12.5,3,9
178,Nou Barris,Verdun,Carrer Batllori,7,41.443325,2.177859,Mal ús de contenidors i/o papereres,No visitat,No visitat,4,5.5,6,2.33,6,10.67,6,5.5,4,2.25,3,0.67,4,6,2,0.5,3,0
179,Nou Barris,Verdun,Plaça de Jesús Carrasco ,,41.445046,2.176726,Poca afluència de gent,No visitat,No visitat,4,2,6,6,6,2.83,Eliminat,Eliminat,Eliminat,Eliminat,Eliminat,Eliminat,Eliminat,Eliminat,Eliminat,Eliminat,Eliminat,Eliminat
180,Nou Barris,Verdun,Carrer Robert,6,41.443708,2.175892,Poca afluència de gent,No visitat,No visitat,4,1,6,3.17,6,2.83,Eliminat,Eliminat,Eliminat,Eliminat,Eliminat,Eliminat,Eliminat,Eliminat,Eliminat,Eliminat,Eliminat,Eliminat
181,Nou Barris,Verdun,Carrer Viladrosa,109,41.443962,2.17705,Mal ús de contenidors i/o papereres,No visitat,No visitat,4,0.5,6,2.17,6,2.33,Eliminat,Eliminat,Eliminat,Eliminat,Eliminat,Eliminat,Eliminat,Eliminat,Eliminat,Eliminat,Eliminat,Eliminat
182,Ciutat Vella,la Barceloneta,Carrer Atlàntida ,35,41.380416,2.189724,Mal ús de contenidors i/o papereres,No visitat,No visitat,No visitat,No visitat,No visitat,No visitat,No visitat,No visitat,7,3.57,4,0.5,7,5.86,8,7,10,4,6,8.83
183,Ciutat Vella,la Barceloneta,Carrer Pepe Rubianes ,37,41.378906,2.191704,Mala praxi comercial,No visitat,No visitat,No visitat,No visitat,No visitat,No visitat,No visitat,No visitat,6,3.83,5,4.6,3,2,2,3,3,0.33,3,0.67
184,Ciutat Vella,"Sant Pere, Santa Caterina i la Ribera",Carrer de Sant Pere Mitjà ,2,41.386917,2.176314,Mal ús del la recollida manual,No visitat,No visitat,No visitat,No visitat,No visitat,No visitat,No visitat,No visitat,6,7.67,5,8.4,2,2,2,8.5,3,19.33,3,4.33
185,Ciutat Vella,"Sant Pere, Santa Caterina i la Ribera",Carrer Comerç ,38,41.386695,2.182004,Mala praxi comercial,No visitat,No visitat,No visitat,No visitat,No visitat,No visitat,No visitat,No visitat,6,25.33,5,8.2,8,7.63,10,6.4,10,9.6,7,4.43
186,Ciutat Vella,el Barri Gòtic,Plaça del Duc de Medinaceli ,1,41.37853,2.17844,Mal ús de contenidors i/o papereres,No visitat,No visitat,No visitat,No visitat,No visitat,No visitat,No visitat,No visitat,6,13.5,5,13,2,9.5,2,6.5,2,2,2,8
187,Ciutat Vella,el Barri Gòtic,Carrer Còdols ,22,41.379354,2.178587,Mal ús del la recollida manual,No visitat,No visitat,No visitat,No visitat,No visitat,No visitat,No visitat,No visitat,6,3.33,4,13,2,8.5,2,0,2,0,3,0
188,Ciutat Vella,el Barri Gòtic,Carrer d'Obradors ,8,41.379632,2.177233,Mal ús del la recollida manual,No visitat,No visitat,No visitat,No visitat,No visitat,No visitat,No visitat,No visitat,6,17.33,4,8.5,2,0,2,9,2,10.5,3,4
189,Ciutat Vella,el Raval,Carrer Nou de la Rambla ,9,41.37865,2.17401,Mala praxi comercial,No visitat,No visitat,No visitat,No visitat,No visitat,No visitat,No visitat,No visitat,6,6.33,5,2.6,8,16.25,10,2.9,11,4,7,3.57
190,Eixample,la Nova Esquerra de l'Eixample,Jardins de Sebastià Gasch,,41.378801,2.152859,Propietaris d'animals incívics,No visitat,No visitat,No visitat,No visitat,No visitat,No visitat,No visitat,No visitat,7,4.71,5,2.4,2,4,2,4,2,1,3,3
191,Eixample,Sant Antoni,Plaça Goya,,41.38381,2.16354,Mala praxi comercial,No visitat,No visitat,No visitat,No visitat,No visitat,No visitat,No visitat,No visitat,7,5.43,5,3.4,9,5.89,9,2.33,9,4.22,8,2.88
192,Eixample,la Nova Esquerra de l'Eixample,Carrer Consell de Cent ,81,41.379316,2.149884,Mala praxi comercial,No visitat,No visitat,No visitat,No visitat,No visitat,No visitat,No visitat,No visitat,6,18.67,5,7.8,9,6.33,10,5.4,9,8,8,6.75
193,Eixample,l'Antiga Esquerra de l'Eixample,Carrer Diputació ,225,41.387275,2.162346,Mala praxi comercial,No visitat,No visitat,No visitat,No visitat,No visitat,No visitat,No visitat,No visitat,5,4.6,6,2,9,10.67,12,8.92,10,8.6,8,9.25
194,Eixample,la Dreta de l'Eixample,Carrer Pau Claris ,98,41.390938,2.16974,Mala praxi comercial,No visitat,No visitat,No visitat,No visitat,No visitat,No visitat,No visitat,No visitat,6,1.33,5,2.6,9,10.22,9,4.44,9,2.11,8,5.75
195,Eixample,la Dreta de l'Eixample,Carrer València ,336,41.39645,2.168493,Mal ús de contenidors i/o papereres,No visitat,No visitat,No visitat,No visitat,No visitat,No visitat,No visitat,No visitat,6,2,Eliminat,Eliminat,Eliminat,Eliminat,Eliminat,Eliminat,Eliminat,Eliminat,Eliminat,Eliminat
196,Eixample,l'Antiga Esquerra de l'Eixample,Carrer Villarroel ,58,41.383383,2.159448,Mala praxi comercial,No visitat,No visitat,No visitat,No visitat,No visitat,No visitat,No visitat,No visitat,5,14.4,5,7.6,9,14.67,10,14,9,8.56,8,8.88
197,Eixample,la Dreta de l'Eixample,Carrer Bailèn ,5,41.391444,2.177421,Mala praxi comercial,No visitat,No visitat,No visitat,No visitat,No visitat,No visitat,No visitat,No visitat,6,3.33,5,2.6,9,6.89,12,2.67,8,3.13,8,2.63
198,Eixample,la Dreta de l'Eixample,Plaça Tetuan,,41.395193,2.175155,Propietaris d'animals incívics,No visitat,No visitat,No visitat,No visitat,No visitat,No visitat,No visitat,No visitat,6,2.67,5,3.2,2,3,2,2,2,2,3,2.33
199,Eixample,la Sagrada Família,Carrer Mallorca ,422,41.403638,2.175885,Mala praxi comercial,No visitat,No visitat,No visitat,No visitat,No visitat,No visitat,No visitat,No visitat,4,3.5,4,0.75,2,2,2,0,2,0,3,0.67
200,Eixample,la Sagrada Família,Plaça Pablo Neruda,,41.401769,2.178646,Propietaris d'animals incívics,No visitat,No visitat,No visitat,No visitat,No visitat,No visitat,No visitat,No visitat,6,7.17,5,2.4,2,5,2,2.5,2,2,3,3.33
201,Eixample,la Sagrada Família,Carrer Sicília ,278,41.401214,2.174211,Mala praxi comercial,No visitat,No visitat,No visitat,No visitat,No visitat,No visitat,No visitat,No visitat,6,1.83,4,2,2,7,1,3,2,2,3,2
202,Sants,Hostafrancs,Carrer de la Noguera Ribagorçana,,41.372807,2.141536,Mal ús de contenidors i/o papereres,No visitat,No visitat,No visitat,No visitat,No visitat,No visitat,No visitat,No visitat,6,6.5,3,1.33,7,2.29,10,3.7,11,4,8,2.13
203,Sants,Sants,Carrer de Joan Güell ,17,41.376346,2.134154,Mal ús de contenidors i/o papereres,No visitat,No visitat,No visitat,No visitat,No visitat,No visitat,No visitat,No visitat,6,1.33,3,1,2,1,2,0,2,0.5,3,1.67
204,Sants,Sants,Passeig de Sant Antoni ,13,41.376952,2.136766,Mala praxi comercial,No visitat,No visitat,No visitat,No visitat,No visitat,No visitat,No visitat,No visitat,4,0,2,0,1,2,1,0,2,0,3,0
205,Sants,Sants,Carrer de Riego ,2,41.375532,2.138419,Mal ús de contenidors i/o papereres,No visitat,No visitat,No visitat,No visitat,No visitat,No visitat,No visitat,No visitat,6,2,3,0,2,0.5,2,0,2,3,3,2.33
206,Sants,el Poble Sec,Carrer de l'Olivera ,2,41.3733465,2.1599141,Mal ús de contenidors i/o papereres,No visitat,No visitat,No visitat,No visitat,No visitat,No visitat,No visitat,No visitat,5,20,Eliminat,Eliminat,Eliminat,Eliminat,Eliminat,Eliminat,Eliminat,Eliminat,Eliminat,Eliminat
207,Sants,la Marina de Port,Parc de Can Sabaté,,41.362923,2.13858,Propietaris d'animals incívics,No visitat,No visitat,No visitat,No visitat,No visitat,No visitat,No visitat,No visitat,6,4.33,3,3,2,2,2,0.5,2,1,3,1
208,Sants,la Font de la Guatlla,Parc de la Font Florida,,41.3666649,2.1409434,Propietaris d'animals incívics,No visitat,No visitat,No visitat,No visitat,No visitat,No visitat,No visitat,No visitat,6,3.5,4,3,2,10,2,1,2,1,3,2.33
209,Sants,la Marina de Port,Carrer de la Mare de Déu de Port ,250,41.3609358,2.1400938,Mal ús de contenidors i/o papereres,No visitat,No visitat,No visitat,No visitat,No visitat,No visitat,No visitat,No visitat,6,15.5,3,4.67,2,3,2,4,2,4,3,4.67
210,Les Corts,les Corts,Plaça Comas ,11,41.38545,2.13044,Mala praxi comercial,No visitat,No visitat,No visitat,No visitat,No visitat,No visitat,No visitat,No visitat,5,0.8,2,10,2,1,2,1.5,2,0,3,2.33
211,Les Corts,les Corts,Jardins de Joan Altisent,,41.387671,2.141879,Mal ús de contenidors i/o papereres,No visitat,No visitat,No visitat,No visitat,No visitat,No visitat,No visitat,No visitat,5,4,2,1,8,1.88,11,3.55,10,1.8,7,1.86
212,Sarrià Sant Gervasi,Sant Gervasi - Galvany,Travessera de Gràcia ,38,41.395325,2.148515,Mala praxi comercial,No visitat,No visitat,No visitat,No visitat,No visitat,No visitat,No visitat,No visitat,6,12.33,4,7.5,9,6,11,2.36,9,3.33,7,3.86
213,Sarrià Sant Gervasi,Sant Gervasi - Galvany,Carrer de Regàs ,22,41.399152,2.1514,Mala praxi comercial,No visitat,No visitat,No visitat,No visitat,No visitat,No visitat,No visitat,No visitat,6,9.83,4,2,2,16,2,3,2,0,2,0
214,Sarrià Sant Gervasi,Sant Gervasi - Galvany,Carrer Calaf ,22,41.397078,2.143543,Mala praxi comercial,No visitat,No visitat,No visitat,No visitat,No visitat,No visitat,No visitat,No visitat,5,1.2,4,3.5,2,0,2,0,1,2,2,4
216,Sarrià Sant Gervasi,Sant Gervasi - Galvany,Parc de Monterols,,41.402179,2.140703,Propietaris d'animals incívics,No visitat,No visitat,No visitat,No visitat,No visitat,No visitat,No visitat,No visitat,6,3.33,4,3.5,1,12,2,1,2,1.5,3,2.67
217,Sarrià Sant Gervasi,el Putxet i el Farró,Ronda General Mitre ,197,41.405168,2.142018,Mala praxi comercial,No visitat,No visitat,No visitat,No visitat,No visitat,No visitat,No visitat,No visitat,6,1.67,4,7,2,0.5,2,2.5,1,4,3,11.33
218,Sarrià Sant Gervasi,Sant Gervasi - la Bonanova,Jardins de Ca n'Altamira,,41.404122,2.132212,Propietaris d'animals incívics,No visitat,No visitat,No visitat,No visitat,No visitat,No visitat,No visitat,No visitat,6,2.33,4,2.75,2,7,2,16,2,3.5,3,2
219,Gràcia,la Vila de Gràcia,Carrer Riera de Sant Miquel ,53,41.398429,2.155277,Mal ús de contenidors i/o papereres,No visitat,No visitat,No visitat,No visitat,No visitat,No visitat,No visitat,No visitat,5,7.2,5,1.6,2,0,2,1,2,0,3,4
220,Gràcia,la Vila de Gràcia,Carrer Torrent de l'Olla ,102,41.401435,2.158382,Mal ús de contenidors i/o papereres,No visitat,No visitat,No visitat,No visitat,No visitat,No visitat,No visitat,No visitat,6,2.83,3,0,2,13,3,2.67,2,0,3,2.33
221,Gràcia,el Camp d'en Grassot i Gràcia Nova,Carrer del Secretari Coloma ,79,41.409909,2.162368,Mal ús de contenidors i/o papereres,No visitat,No visitat,No visitat,No visitat,No visitat,No visitat,No visitat,No visitat,6,4.5,4,4,2,0.5,2,1,2,4,3,1.33
222,Gràcia,el Camp d'en Grassot i Gràcia Nova,Carrer Camèlies ,2,41.410628,2.158497,Mal ús de contenidors i/o papereres,No visitat,No visitat,No visitat,No visitat,No visitat,No visitat,No visitat,No visitat,6,4.33,6,4,2,7,2,0,1,0,3,4
223,Gràcia,el Camp d'en Grassot i Gràcia Nova,Carrer Providència ,166,41.4102603,2.1632556,Mal ús de contenidors i/o papereres,No visitat,No visitat,No visitat,No visitat,No visitat,No visitat,No visitat,No visitat,6,2.67,4,1.5,2,0.5,2,3.5,2,2,3,6.33
224,Gràcia,el Baix Guinardó,Carrer de Pi i Margall ,101,41.411542,2.164327,Mal ús de contenidors i/o papereres,No visitat,No visitat,No visitat,No visitat,No visitat,No visitat,No visitat,No visitat,6,2,4,6.25,2,2,1,0,2,17,3,2.67
226,Horta Guinardó,el Carmel,Carrer del Pantà de Tremp ,34,41.425625,2.154288,Mal ús de contenidors i/o papereres,No visitat,No visitat,No visitat,No visitat,No visitat,No visitat,No visitat,No visitat,6,13.33,3,9.33,8,8.5,10,6.1,10,4.8,8,8.25
229,Horta Guinardó,el Carmel,Carrer del Llobregós ,161,41.423655,2.15514,Mala praxi comercial,No visitat,No visitat,No visitat,No visitat,No visitat,No visitat,No visitat,No visitat,6,3,3,1.33,8,4.25,10,2.8,11,7.55,9,3.33
230,Nou Barris,les Roquetes,Parc del Pla de Fornells,,41.448503,2.176362,Propietaris d'animals incívics,No visitat,No visitat,No visitat,No visitat,No visitat,No visitat,No visitat,No visitat,5,2.2,2,0,Eliminat,Eliminat,Eliminat,Eliminat,Eliminat,Eliminat,Eliminat,Eliminat
231,Nou Barris,Verdun,Carrer de Viladrosa ,114,41.44412,2.177354,Mal ús de contenidors i/o papereres,No visitat,No visitat,No visitat,No visitat,No visitat,No visitat,No visitat,No visitat,6,6,3,4.33,2,5,1,0,2,2,3,9
233,Nou Barris,Verdun,Plaça del Verdun,,41.443525,2.176018,Mal ús de contenidors i/o papereres,No visitat,No visitat,No visitat,No visitat,No visitat,No visitat,No visitat,No visitat,6,5.33,4,7,2,1.5,1,3,2,1,3,4.33
234,Nou Barris,Verdun,Carrer de Casals i Cuberó ,266,41.44262,2.177036,Mal ús de contenidors i/o papereres,No visitat,No visitat,No visitat,No visitat,No visitat,No visitat,No visitat,No visitat,6,7.67,4,2.75,8,1.38,7,3.57,11,1.55,6,1
235,Nou Barris,la Prosperitat,Carrer de Pablo Iglesias ,63,41.444407,2.182122,Mal ús de contenidors i/o papereres,No visitat,No visitat,No visitat,No visitat,No visitat,No visitat,No visitat,No visitat,6,14.5,5,13,7,13.14,11,8.82,10,12.9,6,22.67
236,Nou Barris,la Prosperitat,Carrer Vinyar ,22,41.441427,2.182543,Mal ús de contenidors i/o papereres,No visitat,No visitat,No visitat,No visitat,No visitat,No visitat,No visitat,No visitat,6,4.17,4,12,2,6.5,2,3,2,1,3,10
237,Nou Barris,la Prosperitat,Via Júlia ,6,41.439165,2.175542,Mala praxi comercial,No visitat,No visitat,No visitat,No visitat,No visitat,No visitat,No visitat,No visitat,6,6.67,4,20.25,9,1.78,11,2.64,10,2.9,6,2.5
238,Nou Barris,la Prosperitat,Carrer de Borràs ,18,41.440153,2.178166,Mal ús de contenidors i/o papereres,No visitat,No visitat,No visitat,No visitat,No visitat,No visitat,No visitat,No visitat,6,6.83,4,11,2,5,2,5.5,1,2,3,8
239,Sant Andreu,Navas,Carrer Josep Estivill ,33,41.418567,2.18851,Mala praxi comercial,No visitat,No visitat,No visitat,No visitat,No visitat,No visitat,No visitat,No visitat,5,8.4,4,7.25,2,5,2,4,2,5,3,6.33
240,Sant Andreu,la Sagrera,Carrer de les Antilles ,13,41.425549,2.188745,Mala praxi comercial,No visitat,No visitat,No visitat,No visitat,No visitat,No visitat,No visitat,No visitat,4,9.25,4,3.75,7,6.43,11,6.82,10,3.2,7,2.71
241,Sant Andreu,la Sagrera,Carrer de Pegàs ,8,41.426262,2.187189,Mala praxi comercial,No visitat,No visitat,No visitat,No visitat,No visitat,No visitat,No visitat,No visitat,6,4.17,4,2.25,8,3.63,10,4.6,10,1.7,7,3.57
242,Sant Andreu,la Sagrera,Carrer de Torroella de Montgrí ,19,41.42806,2.186235,Mala praxi comercial,No visitat,No visitat,No visitat,No visitat,No visitat,No visitat,No visitat,No visitat,7,10,4,5,8,1.88,11,2.73,10,2.9,7,6.57
243,Sant Andreu,Sant Andreu,Avinguda Meridiana ,408,41.431585,2.183588,Mala praxi comercial,No visitat,No visitat,No visitat,No visitat,No visitat,No visitat,No visitat,No visitat,5,13.4,4,2.5,7,8.14,12,3.08,10,2.4,7,3.57
244,Sant Andreu,Sant Andreu,Carrer Neopàtria ,51,41.431768,2.188804,Mala praxi comercial,No visitat,No visitat,No visitat,No visitat,No visitat,No visitat,No visitat,No visitat,6,8,4,7.75,6,9.5,11,8.55,10,5.3,7,14
245,Sant Andreu,Sant Andreu,Carrer de Pons i Gallarza ,59,41.435394,2.186803,Mala praxi comercial,No visitat,No visitat,No visitat,No visitat,No visitat,No visitat,No visitat,No visitat,5,6.2,4,15,2,1,2,6,2,3,3,2
246,Sant Andreu,Sant Andreu,Carrer Irlanda ,2,41.430413,2.186136,Mala praxi comercial,No visitat,No visitat,No visitat,No visitat,No visitat,No visitat,No visitat,No visitat,6,8.5,4,8.5,8,7.13,11,5.45,10,8,7,4.29
247,Sant Andreu,el Bon Pastor,Carrer Estadella ,66,41.435152,2.20474,Mala praxi comercial,No visitat,No visitat,No visitat,No visitat,No visitat,No visitat,No visitat,No visitat,6,1.67,4,4,2,3,1,6,2,0,3,0.67
248,Sant Andreu,el Bon Pastor,Carrer d'Alfarràs ,18,41.43724,2.205227,Mal ús de la recollida pneumàtica,No visitat,No visitat,No visitat,No visitat,No visitat,No visitat,No visitat,No visitat,6,0.33,3,3.33,2,3,2,3,2,0,3,2
249,Sant Martí,el Camp de l'Arpa del Clot,Carrer Mallorca ,588,41.410325,2.184763,Mal ús de contenidors i/o papereres,No visitat,No visitat,No visitat,No visitat,No visitat,No visitat,No visitat,No visitat,7,4.86,2,5,2,6,2,3.5,2,7,3,1.33
250,Sant Martí,el Camp de l'Arpa del Clot,Carrer de Josepa Massanes ,3,41.411416,2.183589,Mal ús de contenidors i/o papereres,No visitat,No visitat,No visitat,No visitat,No visitat,No visitat,No visitat,No visitat,6,2,3,0.33,2,0,2,1,2,3,3,4
251,Sant Martí,el Poblenou,Carrer Pallars ,232,41.402755,2.200168,Alt ús de l’espai públic,No visitat,No visitat,No visitat,No visitat,No visitat,No visitat,No visitat,No visitat,7,18.29,3,5.33,8,9,10,3.3,9,2.67,7,6.14
252,Sant Martí,el Poblenou,Carrer Pujades ,177,41.402071,2.200901,Mala praxi comercial,No visitat,No visitat,No visitat,No visitat,No visitat,No visitat,No visitat,No visitat,7,7.29,3,5.33,8,7.25,10,3.1,9,6.11,7,6.29
253,Sant Martí,el Poblenou,Carrer de Ramon Turró ,183,41.399658,2.202284,Mala praxi comercial,No visitat,No visitat,No visitat,No visitat,No visitat,No visitat,No visitat,No visitat,7,10.43,3,6.33,9,2.89,10,2.4,9,2.56,8,4.75
254,Sant Martí,Provençals del Poblenou,Carrer Joan de Malta ,58,41.407442,2.194154,Alt ús de l’espai públic,No visitat,No visitat,No visitat,No visitat,No visitat,No visitat,No visitat,No visitat,7,12.86,3,3.67,2,14,2,4.5,2,4.5,2,4.5
255,Sant Martí,Provençals del Poblenou,Carrer Bac de Roda ,170,41.411586,2.198891,Mal ús de contenidors i/o papereres,No visitat,No visitat,No visitat,No visitat,No visitat,No visitat,No visitat,No visitat,6,16.67,2,7.5,9,11.22,9,9.22,10,3.7,8,7.75
256,Sant Martí,Provençals del Poblenou,Carrer Bilbao ,191,41.408839,2.195284,Mal ús de contenidors i/o papereres,No visitat,No visitat,No visitat,No visitat,No visitat,No visitat,No visitat,No visitat,7,14.57,2,5,2,6.5,2,18.5,2,8,2,12.5
257,Sant Martí,la Verneda i la Pau,Rambla Guipúscoa ,160,41.423098,2.206359,Mal ús de contenidors i/o papereres,No visitat,No visitat,No visitat,No visitat,No visitat,No visitat,No visitat,No visitat,7,7.14,2,2,2,4,2,11,2,4.5,3,5.33
258,Sant Martí,el Besòs i el Maresme,Carrer del Maresme ,140,41.416445,2.210444,Mal ús de contenidors i/o papereres,No visitat,No visitat,No visitat,No visitat,No visitat,No visitat,No visitat,No visitat,6,42.33,3,9,2,6,2,13,1,4,3,8.67
259,Sant Martí,la Verneda i la Pau,Carrer Andrade ,206,41.418076,2.204435,Mala praxi comercial,No visitat,No visitat,No visitat,No visitat,No visitat,No visitat,No visitat,No visitat,3,5,2,4,2,1,2,7.5,2,0,3,2
260,Eixample,el Fort Pienc,Jardins Antiga Carretera d'Horta,,41.393964,2.180279,Propietaris d'animals incívics,No visitat,No visitat,No visitat,No visitat,No visitat,No visitat,No visitat,No visitat,No visitat,No visitat,No visitat,No visitat,2,0,2,2,2,2.5,3,2
261,Sants,el Poble Sec,Carrer Elkano ,68,41.373924,2.1611392,Mal ús de contenidors i/o papereres,No visitat,No visitat,No visitat,No visitat,No visitat,No visitat,No visitat,No visitat,No visitat,No visitat,No visitat,No visitat,9,11.56,10,5.8,11,2.55,8,4.38
262,Nou Barris,les Roquetes,Carrer Jaume Pinent,2,41.446143,2.176499,Mal ús de contenidors i/o papereres,No visitat,No visitat,No visitat,No visitat,No visitat,No visitat,No visitat,No visitat,No visitat,No visitat,No visitat,No visitat,2,2,1,0,2,16.5,3,4.33
